City,Lat,Lng,Max_Temp,Humidity,Cloudiness,Wind Speed,Country,Date
beloha,-25.1667,45.05,66.02,98,18,4.16,MG,1665435071
sarangani,5.4033,125.4636,83.44,77,75,13.53,PH,1665435072
tuktoyaktuk,69.4541,-133.0374,30.2,86,100,20.71,CA,1665434770
arman,59.7,150.1667,24.17,82,45,5.84,RU,1665435074
biankouma,7.7391,-7.6138,70.34,91,13,1.79,CI,1665435074
smithers,54.7804,-127.1743,53.92,37,40,11.5,CA,1665435075
vaini,-21.2,-175.2,75.36,83,40,19.57,TO,1665434779
dikson,73.5069,80.5464,34.29,99,100,7.74,RU,1665435078
port macquarie,-31.4333,152.9167,59.9,77,100,4.38,AU,1665435079
albany,42.6001,-73.9662,59.67,80,67,5.91,US,1665434672
kodiak,57.79,-152.4072,54.91,67,20,17.27,US,1665434780
hilo,19.7297,-155.09,88.29,72,40,5.99,US,1665434680
rikitea,-23.1203,-134.9692,72.19,73,2,9.57,PF,1665434668
mataura,-46.1927,168.8643,44.89,96,99,6.24,NZ,1665434792
ushuaia,-54.8,-68.3,47.86,61,75,19.57,AR,1665434573
faanui,-16.4833,-151.75,78.03,75,31,18.59,PF,1665434808
punta arenas,-53.15,-70.9167,53.71,43,40,32.21,CL,1665434676
salta,-24.7859,-65.4117,70.39,20,0,13.8,AR,1665435089
nadym,65.5333,72.5167,39.74,84,85,16.4,RU,1665435091
port alfred,-33.5906,26.891,68.18,85,99,1.99,ZA,1665434619
roald,62.5833,6.1333,50.76,76,75,19.57,NO,1665434818
olafsvik,64.8945,-23.7142,38.66,65,98,14.63,IS,1665435093
hambantota,6.1241,81.1185,78.39,84,100,13.04,LK,1665435093
beringovskiy,63.05,179.3167,32.09,61,31,10.22,RU,1665435093
bilibino,68.0546,166.4372,11.55,96,100,4.47,RU,1665435086
yellowknife,62.456,-114.3525,54.12,58,75,13.8,CA,1665435094
khatanga,71.9667,102.5,5.23,97,70,2.24,RU,1665434772
shush,32.1942,48.2436,83.79,18,0,2.62,IR,1665435094
wenling,28.3669,121.36,52,61,52,11.05,CN,1665435067
jamestown,42.097,-79.2353,62.06,43,0,11.5,US,1665434803
beni,0.5,29.4667,63.01,99,100,2.1,CD,1665435126
albanel,48.8832,-72.4487,44.74,57,94,13.8,CA,1665435131
burns lake,54.2331,-125.7533,53.02,29,1,12.59,CA,1665435132
cape town,-33.9258,18.4232,70.38,67,0,3,ZA,1665434391
sakaiminato,35.55,133.2333,60.78,63,75,17.27,JP,1665435135
bluff,-46.6,168.3333,49.48,61,68,18.81,NZ,1665435136
hobart,-42.8794,147.3294,48.06,92,40,8.05,AU,1665434783
ribeira grande,38.5167,-28.7,72,88,20,3.44,PT,1665435139
lebu,-37.6167,-73.65,51.15,74,2,20.27,CL,1665434768
fortuna,40.5982,-124.1573,58.12,94,100,10.36,US,1665434667
busselton,-33.65,115.3333,53.01,66,98,10.54,AU,1665434614
codrington,-38.2667,141.9667,51.57,74,98,11.32,AU,1665434872
kamaishi,39.2667,141.8833,60.15,86,100,4.54,JP,1665435141
manacapuru,-3.2997,-60.6206,89.19,50,89,3.94,BR,1665435147
new norfolk,-42.7826,147.0587,47.71,82,13,1.72,AU,1665434614
puerto carreno,6.189,-67.4859,93.18,52,40,9.22,CO,1665435148
kaitangata,-46.2817,169.8464,47.28,87,98,11.34,NZ,1665434687
kapaa,22.0752,-159.319,84.11,70,0,6.91,US,1665434786
hermanus,-34.4187,19.2345,69.8,54,100,4.21,ZA,1665434794
kahului,20.8947,-156.47,87.82,70,40,9.22,US,1665435150
nhulunbuy,-12.2333,136.7667,77.61,94,55,2.3,AU,1665434860
kresttsy,58.2452,32.5165,40.82,90,100,4.85,RU,1665435153
butaritari,3.0707,172.7902,82,73,95,13.27,KI,1665434649
barrow,71.2906,-156.7887,23.02,86,0,14.97,US,1665434821
lompoc,34.6391,-120.4579,81.01,79,100,10.36,US,1665435156
port lincoln,-34.7333,135.8667,64.63,37,99,14.81,AU,1665435157
east london,-33.0153,27.9116,68.27,85,100,17.56,ZA,1665434720
tasiilaq,65.6145,-37.6368,33.96,98,100,15.35,GL,1665434666
geraldton,-28.7667,114.6,46.81,87,97,2.3,AU,1665434783
carnarvon,-24.8667,113.6333,63.93,62,96,20.58,AU,1665434854
padang,-0.9492,100.3543,76.91,82,99,2.75,ID,1665434780
bethel,41.3712,-73.414,65.75,57,100,5.75,US,1665434771
tilichiki,60.4667,166.1,33.28,67,97,5.59,RU,1665435164
constitucion,-35.3333,-72.4167,57.81,63,0,13.6,CL,1665434793
beya,53.0533,90.9139,40.28,91,100,9.62,RU,1665434973
longyearbyen,78.2186,15.6401,33.64,75,100,3.44,SJ,1665435057
rovinj,45.08,13.64,59.49,73,93,4.47,HR,1665434988
iwanai,42.9744,140.5089,53.17,90,93,5.84,JP,1665435194
dandong,40.1292,124.3947,34.56,88,0,5.26,CN,1665435194
atuona,-9.8,-139.0333,76.51,69,12,13.06,PF,1665434884
lagoa,39.05,-27.9833,70.05,87,81,6.71,PT,1665434796
mahajanga,-15.7167,46.3167,73.42,78,0,2.3,MG,1665435196
cabo san lucas,22.8909,-109.9124,94.6,56,0,7.85,MX,1665434879
nikolskoye,59.7035,30.7861,44.8,86,64,6.49,RU,1665434657
havre-saint-pierre,50.2334,-63.5986,43.16,70,40,21.85,CA,1665434779
castro,-24.7911,-50.0119,57.4,97,100,9.06,BR,1665434678
cotonou,6.3654,2.4183,80.58,83,20,8.05,BJ,1665435212
mogadishu,2.0371,45.3438,77.09,82,6,16.51,SO,1665435123
torbay,47.6666,-52.7314,51.39,60,20,20.71,CA,1665435229
saint-philippe,-21.3585,55.7679,71.19,81,22,8.97,RE,1665434768
bredasdorp,-34.5322,20.0403,63.97,66,96,3.44,ZA,1665434772
christchurch,-43.5333,172.6333,61.48,44,100,5.75,NZ,1665435175
abrau-dyurso,44.69,37.59,53.06,59,22,17.11,RU,1665435230
provideniya,64.3833,-173.3,30.31,80,20,6.71,RU,1665434781
cherskiy,68.75,161.3,17.17,95,100,12.35,RU,1665434866
buala,-8.145,159.5921,82.33,67,9,3.31,SB,1665435231
hasaki,35.7333,140.8333,74.21,66,98,27.2,JP,1665434984
naze,28.3667,129.4833,68.92,60,100,15.88,JP,1665435243
mumford,5.2618,-0.759,77.38,87,26,7.36,GH,1665435245
san miguel,13.4833,-88.1833,74.53,99,100,2.24,SV,1665435248
broome,42.2506,-75.833,61.38,64,85,3,US,1665435249
tiksi,71.6872,128.8694,12.54,85,99,13.96,RU,1665434771
airai,-8.9266,125.4092,60.87,82,100,2.1,TL,1665434809
santa cruz del sur,20.7147,-77.9956,85.01,67,93,2.66,CU,1665435260
yaan,7.3833,8.5667,75.33,87,43,4.68,NG,1665435264
bambous virieux,-20.3428,57.7575,71.85,78,40,6.91,MU,1665434857
broken hill,-31.95,141.4333,59.2,38,100,11.18,AU,1665435266
verkhnevilyuysk,63.4453,120.3167,22.28,99,100,0.83,RU,1665435269
vila velha,-20.3297,-40.2925,78.75,83,75,17.27,BR,1665435280
lucapa,-8.4192,20.7447,69.31,46,6,1.14,AO,1665435291
anadyr,64.75,177.4833,23.5,85,0,2.24,RU,1665435297
cururupu,-1.8283,-44.8683,79.41,76,63,5.64,BR,1665434872
arraial do cabo,-22.9661,-42.0278,75.06,83,40,4.61,BR,1665434771
taoudenni,22.6783,-3.9836,93.74,18,33,8.86,ML,1665435299
chakwal,32.9334,72.8585,72.77,59,11,5.08,PK,1665435299
topeka,39.0483,-95.678,83.89,39,73,1.99,US,1665435300
hithadhoo,-0.6,73.0833,80.78,78,97,17.09,MV,1665434782
puerto ayora,-0.7393,-90.3518,76.96,87,65,7,EC,1665435245
sabha,27.0377,14.4283,75.24,27,40,7.47,LY,1665435290
north platte,41.1239,-100.7654,81.12,24,0,15.01,US,1665435331
xiongzhou,25.1167,114.3,57.16,36,57,2.75,CN,1665435331
hobyo,5.3505,48.5268,77.34,87,61,22.24,SO,1665434819
upernavik,72.7868,-56.1549,14.74,69,89,4.56,GL,1665434780
mitchell,43.7094,-98.0298,82.11,23,0,5.01,US,1665435332
luderitz,-26.6481,15.1594,60.31,87,43,1.23,NA,1665435333
chokurdakh,70.6333,147.9167,19.62,84,100,17.65,RU,1665434924
marsabit,2.3284,37.9899,68.25,52,0,21.05,KE,1665435335
laguna,38.421,-121.4238,92.32,34,0,8.05,US,1665435336
saint george,37.1041,-113.5841,85.42,24,0,3.44,US,1665435338
qaanaaq,77.484,-69.3632,8.17,58,23,7.23,GL,1665435338
matamba,-8.9833,33.9667,54.97,71,75,5.5,TZ,1665435339
sigli,5.3848,95.9609,76.95,81,100,3.78,ID,1665435339
dudinka,69.4058,86.1778,36.63,100,100,4.97,RU,1665435341
sao filipe,14.8961,-24.4956,78.8,76,52,7.65,CV,1665435342
ondjiva,-17.0667,15.7333,72.84,15,26,3.83,AO,1665435343
cedral,23.8,-100.7333,72.91,43,3,11.07,MX,1665435343
sidi ali,36.0998,0.4206,68.63,80,21,3.76,DZ,1665435345
dvorichna,49.8496,37.6857,50.34,94,100,11.92,UA,1665435276
victoria,22.2855,114.1577,73.33,44,3,15.01,HK,1665434574
tevriz,57.509,72.4042,48.54,79,100,10.27,RU,1665435348
isla vista,34.4133,-119.861,81.25,64,32,4.9,US,1665435348
sakakah,29.9697,40.2064,80.17,30,0,10.83,SA,1665435350
gazipur,23.9981,90.423,82.36,74,40,11.5,BD,1665435351
muisne,0.6,-80.0333,75.72,80,97,9.48,EC,1665435352
clyde river,70.4692,-68.5914,19.63,79,40,16.11,CA,1665435359
banjar,-8.19,114.9675,76.39,89,100,5.14,ID,1665435360
avarua,-21.2078,-159.775,77.05,73,20,26.46,CK,1665434771
hofn,64.2539,-15.2082,33.44,60,35,10.49,IS,1665435362
nizwa,22.9333,57.5333,75.92,22,14,3.13,OM,1665435362
oktyabrskiy,54.4815,53.471,49.66,58,100,3.33,RU,1665435179
college,64.8569,-147.8028,33.21,87,40,0,US,1665435364
susangerd,31.5608,48.1831,86.83,16,0,6.11,IR,1665435367
port blair,11.6667,92.75,77.99,84,100,2.68,IN,1665435368
mayumba,-3.432,10.6554,76.5,90,58,7.07,GA,1665435369
manado,1.487,124.8455,75.97,94,40,3.44,ID,1665435082
tarauaca,-8.1614,-70.7656,94.64,37,80,2.28,BR,1665435371
bay roberts,47.5999,-53.2648,52.14,66,6,4,CA,1665435371
esperance,-33.8667,121.9,54.43,72,99,19.71,AU,1665434778
necochea,-38.5473,-58.7368,59.41,53,22,18.16,AR,1665435259
svelgen,61.7685,5.2955,47.39,79,99,15.99,NO,1665435373
matara,5.9485,80.5353,76.64,89,100,6.87,LK,1665435373
thompson,55.7435,-97.8558,69.96,37,20,13.8,CA,1665435373
lorengau,-2.0226,147.2712,80.56,67,78,6.13,PG,1665435373
nelson bay,-32.7167,152.15,63,76,100,11.99,AU,1665435374
fairbanks,64.8378,-147.7164,33.22,87,40,0,US,1665435376
bykovo,55.6361,38.0803,45.41,87,0,6.71,RU,1665435377
georgetown,5.4112,100.3354,81.23,87,20,2.3,MY,1665434778
mahebourg,-20.4081,57.7,71.89,78,40,6.91,MU,1665435379
grand gaube,-20.0064,57.6608,72,73,14,4,MU,1665435309
macapa,0.0389,-51.0664,89.58,62,40,11.5,BR,1665435380
chuy,-33.6971,-53.4616,54.23,62,6,8.12,UY,1665435381
lerwick,60.1545,-1.1494,48.2,64,100,26.24,GB,1665435381
strelka,58.0728,93.0344,43.93,88,100,10,RU,1665435382
mega,4.05,38.3,65.75,48,78,14.09,ET,1665435383
chapais,49.7834,-74.8492,38.98,86,100,10,CA,1665435384
saldanha,-33.0117,17.9442,68.05,78,100,10.94,ZA,1665434853
tiznit,29.5833,-9.5,64.96,75,5,3.67,MA,1665435386
avera,33.194,-82.5271,78.31,47,49,4.99,US,1665435387
srednekolymsk,67.45,153.6833,16.32,95,73,9.33,RU,1665435388
rio grande,-32.035,-52.0986,59.11,64,100,12.24,BR,1665435226
la ronge,55.1001,-105.2842,73.65,23,40,12.66,CA,1665435390
port elizabeth,-33.918,25.5701,66.49,94,0,12.66,ZA,1665434855
lavrentiya,65.5833,-171,26.69,60,2,7.94,RU,1665435270
amapa,1,-52,81.46,60,89,2.55,BR,1665435392
saint-joseph,-21.3667,55.6167,70.18,80,24,8.34,RE,1665435394
richha,28.7,79.5167,66.96,95,6,5.1,IN,1665435395
isangel,-19.55,169.2667,75.31,73,100,6.91,VU,1665435396
mar del plata,-38.0023,-57.5575,53.94,75,0,18.99,AR,1665434857
raudeberg,61.9875,5.1352,47.07,22,69,27.69,NO,1665435397
kawalu,-7.3817,108.2082,71.01,98,100,1.19,ID,1665435398
hurghada,27.2574,33.8129,76.24,55,0,15.9,EG,1665435398
cidreira,-30.1811,-50.2056,57.56,86,100,17.22,BR,1665435404
galle,6.0367,80.217,77.4,87,94,6.67,LK,1665435405
bambanglipuro,-7.95,110.2833,76.15,90,100,3.87,ID,1665435405
atikokan,48.7555,-91.6216,59.29,42,29,9.08,CA,1665435405
ostrovnoy,68.0531,39.5131,39.54,92,80,11.25,RU,1665434877
faya,18.3851,42.4509,64.92,31,8,7.34,SA,1665435406
aklavik,68.2191,-135.0107,32.47,85,100,16.51,CA,1665435406
whitehorse,60.7161,-135.0538,44.02,57,75,0,CA,1665435406
melfi,40.9965,15.6514,57.13,93,91,3.6,IT,1665435407
ouadda,8.0777,22.4007,67.8,93,100,1.34,CF,1665435407
namibe,-15.1961,12.1522,67.8,86,42,9.73,AO,1665435407
dayong,25.0209,118.2898,58.66,70,4,4.54,CN,1665435407
abay,49.6311,72.8539,32.38,60,11,6.69,KZ,1665435408
townsville,-19.25,146.8,74.28,78,40,11.5,AU,1665435408
yumen,40.2833,97.2,42.15,18,34,1.95,CN,1665435408
nome,64.5011,-165.4064,30.27,80,100,3.44,US,1665435261
afsin,38.2477,36.914,54.3,63,5,2.24,TR,1665435411
tatarsk,55.219,75.9828,46.2,74,100,13.38,RU,1665435412
aspindza,41.5739,43.2483,51.8,90,83,0.18,GE,1665435413
dehui,44.5333,125.7,33.89,70,0,7.05,CN,1665435414
marienburg,54.0359,19.0266,54.88,49,100,16.42,PL,1665435415
souillac,-20.5167,57.5167,71.98,78,40,6.91,MU,1665435416
lagos,6.5833,3.75,79.12,90,76,2.53,NG,1665435265
khirkiya,22.1674,76.8605,74.21,91,100,6.29,IN,1665435417
muros,42.7762,-9.0603,62.17,95,98,6.04,ES,1665435267
warrington,53.3925,-2.5802,51.28,83,40,6.91,GB,1665435420
talnakh,69.4865,88.3972,36.21,99,100,6.8,RU,1665435275
abaza,52.655,90.0928,40.73,93,100,4.85,RU,1665435421
te anau,-45.4167,167.7167,50.23,82,84,3.31,NZ,1665435423
port hardy,50.6996,-127.4199,57.38,62,40,19.57,CA,1665435424
katsuura,35.1333,140.3,70.65,66,95,25.79,JP,1665435424
ilulissat,69.2167,-51.1,26.46,92,100,6.64,GL,1665435426
muncie,40.1934,-85.3864,74.86,36,1,5.99,US,1665435427
preobrazheniye,42.9019,133.9064,47.07,86,29,12.03,RU,1665435428
kotelnich,58.3089,48.348,40.21,87,33,2.73,RU,1665435429
bijapur,16.8333,75.7,75.52,81,100,5.5,IN,1665435429
schlitz,50.6742,9.561,58.24,89,98,3.94,DE,1665435430
sobolevo,54.4299,31.8996,39.94,87,0,4.18,RU,1665435296
half moon bay,37.4636,-122.4286,84.88,75,75,8.05,US,1665435431
mangai,-4.05,19.5333,71.73,87,47,0.74,CD,1665435433
puerto ayacucho,5.6639,-67.6236,85.73,72,91,2.1,VE,1665435413
topolobampo,25.6,-109.05,92.14,40,0,16.06,MX,1665435434
itaituba,-4.2761,-55.9836,78.96,89,100,0,BR,1665435435
birao,10.2849,22.7882,72.3,84,22,4.16,CF,1665435436
gamba,-2.65,10,76.57,88,89,4.92,GA,1665435437
san cristobal,7.7669,-72.225,80.78,59,100,5.86,VE,1665435263
pevek,69.7008,170.3133,25.45,82,100,26.22,RU,1665435443
sao joao da barra,-21.6403,-41.0511,80.69,84,9,7.4,BR,1665434854
el alto,-4.2714,-81.2147,69.46,73,31,18.07,PE,1665435445
bengkulu,-3.8004,102.2655,76.28,85,100,3.42,ID,1665435446
gonen,40.1049,27.654,60.37,87,63,7.67,TR,1665435303
mogwase,-25.185,27.2665,76.91,22,23,10.49,ZA,1665435449
rivers,50.0308,-100.2403,72.55,28,25,15.21,CA,1665435449
marfino,55.7028,37.3822,44.94,83,0,4.47,RU,1665435450
okakarara,-20.5833,17.4333,69.82,14,4,6.69,NA,1665435450
jardim,-21.4803,-56.1381,74.59,72,97,3.27,BR,1665435451
iqaluit,63.7506,-68.5145,28.13,80,75,13.8,CA,1665435286
los llanos de aridane,28.6585,-17.9182,67.75,84,20,8.05,ES,1665435452
yeroham,30.9872,34.9314,66.15,69,0,7.99,IL,1665435223
nouadhibou,20.931,-17.0347,73.38,78,16,12.66,MR,1665435455
coahuayana,18.7333,-103.6833,92.62,49,73,5.44,MX,1665435456
canico,32.6333,-16.85,74.01,84,75,9.22,PT,1665435456
myaundzha,63.0494,147.1858,1.15,98,86,1.45,RU,1665435457
alanya,36.5438,31.9998,73.08,50,0,4.61,TR,1665435402
narsaq,60.9167,-46.05,34.75,99,100,5.99,GL,1665435460
mount isa,-20.7333,139.5,55.17,58,2,0,AU,1665434889
bathsheba,13.2167,-59.5167,86.61,74,40,18.41,BB,1665435302
puerto madero,14.7208,-92.4215,75.63,91,100,3.56,MX,1665435258
asfi,32.2994,-9.2372,67.68,84,100,6.29,MA,1665435465
jalu,29.0331,21.5482,72.64,41,0,6.53,LY,1665435465
saint-pierre,-21.3393,55.4781,71.28,73,100,3.44,RE,1665435283
udachnyy,66.4167,112.4,21.9,95,94,7.49,RU,1665435467
ketchikan,55.3422,-131.6461,53.2,62,30,7.16,US,1665435467
araouane,18.9048,-3.5265,94.8,13,14,4.76,ML,1665435284
qianan,44.9932,124.0581,35.24,55,0,7.05,CN,1665435469
quatre cocos,-20.2078,57.7625,71.71,75,61,11.79,MU,1665435471
chase,50.8165,-119.6857,59.88,36,59,1.7,CA,1665435471
rakai,-0.72,31.4839,63.34,75,36,3.24,UG,1665435472
la sarre,48.8002,-79.1996,44.78,55,50,9.57,CA,1665435473
racine,42.7495,-88.0751,69.3,66,40,5.99,US,1665435474
castellammare del golfo,38.0188,12.8858,70.92,79,4,1.9,IT,1665435474
imeni poliny osipenko,52.4201,136.4853,30.34,79,100,8.88,RU,1665435475
agadez,19.75,10.25,80.87,19,2,8.97,NE,1665435475
sigmaringen,48.0833,9.2167,54.34,89,97,2.44,DE,1665435475
aykhal,66,111.5,17.22,100,90,7.16,RU,1665435475
wagar,16.1525,36.2032,88.77,34,2,7.4,SD,1665435476
valencia,39.3333,-0.8333,61.68,80,100,2.17,ES,1665435376
juneau,58.3019,-134.4197,48.22,82,100,5.37,US,1665435472
watertown,42.3709,-71.1828,64.51,66,80,10,US,1665435492
oktyabrskoye,43.0645,44.7417,57.34,93,86,13.42,RU,1665435507
saskylakh,71.9167,114.0833,9.68,94,45,9.22,RU,1665435251
adrar,20.5022,-10.0711,92.23,20,25,10.6,MR,1665435515
leczna,51.3012,22.8814,46.11,100,0,5.75,PL,1665435245
kavieng,-2.5744,150.7967,81.46,71,11,8.41,PG,1665435539
enniscorthy,52.5008,-6.5578,51.48,79,75,2.98,IE,1665435541
damara,4.9608,18.7035,70.2,96,100,2.51,CF,1665435542
nizhniye achaluki,43.4028,44.7591,60.4,88,95,11.41,RU,1665435542
patiya,22.2931,91.9762,74.3,96,89,2.68,BD,1665435542
parrita,9.5201,-84.3225,81.05,77,100,4.09,CR,1665435543
maneadero,31.7167,-116.5667,68.11,85,18,3,MX,1665435543
koutiala,12.3917,-5.4642,82.18,56,67,8.43,ML,1665435543
lata,40.1629,-8.3327,63.91,95,50,1.81,PT,1665435544
kudahuvadhoo,2.6708,72.8944,81.21,79,35,20.27,MV,1665435545
falmouth,50.1544,-5.0711,50.9,87,20,4.61,GB,1665435549
mackay,-21.15,149.2,70.68,81,88,16.44,AU,1665435563
lingsugur,16.1667,76.5167,72.77,94,100,8.61,IN,1665435575
kananga,-5.8958,22.4178,73.15,63,48,2.98,CD,1665435577
vostok,46.4856,135.8833,42.71,95,100,2.8,RU,1665435577
biltine,14.5333,20.9167,87.76,21,6,6.02,TD,1665435577
kruisfontein,-34.0033,24.7314,68.88,77,99,5.26,ZA,1665435578
sandnessjoen,66.0217,12.6316,50.41,78,75,24.16,NO,1665435578
werda,-25.2667,23.2833,73.29,13,27,8.66,BW,1665435578
hovd,48.0056,91.6419,37.74,54,69,3.71,MN,1665435578
lokoja,7.8024,6.743,75.61,91,35,2.13,NG,1665435344
pisco,-13.7,-76.2167,68.05,60,0,17.27,PE,1665435590
berlevag,70.8578,29.0864,41,75,0,6.91,NO,1665435613
bajos de haina,18.4154,-70.0332,81.5,79,11,8.23,DO,1665435624
guerrero negro,27.9769,-114.0611,75.69,67,16,14.16,MX,1665435634
margate,51.3813,1.3862,54.7,69,5,4,GB,1665435486
george,-33.963,22.4617,62.15,82,100,11.5,ZA,1665435538
pizarro,4.9533,-77.366,77,90,100,6.08,CO,1665435644
tahe,52.3333,124.7333,28.6,80,3,3.24,CN,1665435650
camalu,30.85,-116.0667,72.99,72,17,11.5,MX,1665435667
riyadh,24.6877,46.7219,82.69,13,3,6.96,SA,1665435631
ewo,-0.8725,14.8206,73.58,89,99,3.02,CG,1665435678
mahon,39.8885,4.2658,68.56,88,20,5.75,ES,1665435406
shakawe,-18.3667,21.85,74.25,14,6,8.12,BW,1665435679
aden,12.7794,45.0367,84.38,66,72,14.27,YE,1665435680
great yarmouth,52.6083,1.7305,49.41,68,3,9.69,GB,1665435680
port hedland,-20.3167,118.5667,71.65,78,4,10.36,AU,1665435681
walvis bay,-22.9575,14.5053,60.1,85,97,1.92,NA,1665435659
lasa,46.6166,10.7002,51.37,88,84,3.2,IT,1665435712
severo-kurilsk,50.6789,156.125,46.53,84,100,12.5,RU,1665435682
kailua,21.4022,-157.7394,86.07,75,6,4.25,US,1665435713
slave lake,55.2834,-114.769,58.98,63,75,35.68,CA,1665435714
vestmannaeyjar,63.4427,-20.2734,38.82,58,96,3.09,IS,1665435716
yeppoon,-23.1333,150.7333,64.18,81,97,18.05,AU,1665435722
ashland,40.8167,-82.2665,70.16,44,0,7.34,US,1665435735
port moresby,-9.4431,147.1797,77.58,83,28,4,PG,1665435745
dubbo,-32.25,148.6167,53.73,82,100,12.66,AU,1665435746
tabou,4.423,-7.3528,77.27,89,81,6.29,CI,1665435748
poum,-20.2333,164.0167,77.18,74,100,22.95,NC,1665435749
fukue,32.6881,128.8419,64.22,65,100,21.25,JP,1665435749
kavaratti,10.5669,72.642,80.49,79,95,10.42,IN,1665435749
biak,-0.9131,122.8766,75.72,84,100,2.33,ID,1665435750
vila franca do campo,37.7167,-25.4333,75.2,92,29,4.05,PT,1665435751
bandiagara,14.3501,-3.6104,90.09,28,6,7.56,ML,1665435781
katherine,-14.4667,132.2667,73.72,56,16,4.61,AU,1665435782
lovozero,68.005,35.0117,35.94,90,64,1.7,RU,1665435782
puerto del rosario,28.5004,-13.8627,73.15,73,40,13.8,ES,1665435677
mandalgovi,45.7625,106.2708,32.95,28,44,2.64,MN,1665435785
jos,9.9167,8.9,68.05,63,37,2.93,NG,1665435756
yichun,47.7,128.9,27.14,70,1,4.05,CN,1665435815
merrill,45.1805,-89.6835,64.17,52,0,6.91,US,1665435816
pontes e lacerda,-15.2261,-59.3353,83.55,58,72,4,BR,1665435816
morgan city,29.6994,-91.2068,84.99,39,0,6.91,US,1665435816
kalush,49.0119,24.3731,42.06,81,0,5.97,UA,1665435817
palana,59.1167,159.9667,35.92,74,100,26.26,RU,1665435817
keetmanshoop,-26.5833,18.1333,82.02,15,89,2.48,NA,1665435817
colares,38.7992,-9.4469,67.33,97,6,17,PT,1665435820
nemuro,43.3236,145.575,59.68,88,100,14.16,JP,1665435849
hvolsvollur,63.7533,-20.2243,32.86,70,100,3.36,IS,1665435849
kumluca,36.3703,30.2869,72.37,56,0,4.63,TR,1665435850
champerico,14.3,-91.9167,75.61,91,100,5.66,GT,1665435850
mpanda,-6.3655,31.0409,75.99,37,99,0.98,TZ,1665435853
callaway,30.153,-85.5699,85.91,30,0,7,US,1665435853
mana,5.6592,-53.7767,79.38,89,17,8.05,GF,1665435855
kokopo,-4.352,152.2633,77.77,67,10,3.89,PG,1665435856
dingle,10.9995,122.6711,74.57,91,50,1.1,PH,1665435857
bilma,18.6853,12.9164,83.89,18,0,3.96,NE,1665435858
mehamn,71.0357,27.8492,40.95,75,0,5.75,NO,1665435859
ponta do sol,32.6667,-17.1,74.01,73,58,6.87,PT,1665435860
omsukchan,62.5333,155.8,2.98,94,79,4.97,RU,1665435861
manzhouli,49.6,117.4333,34.45,35,52,3.33,CN,1665435862
egvekinot,66.3167,-179.1667,14.16,68,51,6.29,RU,1665435864
cacu,-18.5567,-51.1308,71.37,82,100,4.12,BR,1665435864
maputo,-25.9653,32.5892,74.88,83,75,4.61,MZ,1665435675
chake chake,-5.2459,39.7666,73.17,81,33,10.22,TZ,1665435866
hamilton,39.1834,-84.5333,75.07,37,0,9.22,US,1665435867
flin flon,54.7682,-101.865,69.1,36,0,11.79,CA,1665435868
feijo,-8.1642,-70.3536,87.26,51,93,2.57,BR,1665435869
balikpapan,-1.2675,116.8289,76.19,100,40,5.75,ID,1665435870
hirara,24.8,125.2833,76.05,65,100,29.68,JP,1665435871
norman wells,65.282,-126.8329,32.83,92,100,29.06,CA,1665435872
sitka,57.0531,-135.33,51.69,71,100,3.44,US,1665435878
great falls,47.5002,-111.3008,74.59,28,0,26.46,US,1665435880
southampton,50.904,-1.4043,52.86,77,2,1.99,GB,1665435781
cap malheureux,-19.9842,57.6142,69.48,74,13,3,MU,1665435675
houma,29.5958,-90.7195,82,43,0,10.36,US,1665435883
valdez,1.2492,-78.9831,78.06,79,100,11.95,EC,1665435883
porto velho,-8.7619,-63.9039,82.45,65,40,9.22,BR,1665435849
waipawa,-41.4122,175.5153,54.66,80,100,17.38,NZ,1665435884
teocaltiche,21.4333,-102.5833,74.71,39,15,4.61,MX,1665435885
leningradskiy,69.3833,178.4167,21.33,70,100,21.23,RU,1665435885
urucui,-7.2294,-44.5561,92.46,22,79,6.62,BR,1665435886
pitanga,-24.7572,-51.7614,63.48,99,100,5.46,BR,1665435886
nishihara,26.1842,127.7558,72.68,62,40,17.27,JP,1665435890
colac,-38.3333,143.5833,53.83,75,100,5.28,AU,1665435891
zaraza,9.3503,-65.3245,82.96,73,100,2.59,VE,1665435892
narragansett,41.4501,-71.4495,65.71,69,0,6.91,US,1665435894
puerto madryn,-42.7692,-65.0385,66.72,26,4,21.79,AR,1665435895
uitenhage,-33.7576,25.3971,70.41,80,100,4.59,ZA,1665435896
luang prabang,19.8856,102.1347,65.55,97,76,1.61,LA,1665435686
oussouye,12.485,-16.5469,79.75,80,38,2.98,SN,1665435898
kununurra,-15.7667,128.7333,75.18,78,9,1.14,AU,1665435902
ahipara,-35.1667,173.1667,62.94,64,57,3.27,NZ,1665435903
rio gallegos,-51.6226,-69.2181,60.85,18,20,23.02,AR,1665435904
santiago del estero,-27.7951,-64.2615,75.65,17,2,9.06,AR,1665435677
macau,22.2006,113.5461,73.13,46,0,19.57,MO,1665435907
porto walter,-8.2686,-72.7439,97.59,27,71,3.65,BR,1665435909
amuntai,-2.4177,115.2494,73.26,99,100,1.07,ID,1665435802
estelle,29.8458,-90.1067,82,41,0,8.05,US,1665435912
sisimiut,66.9395,-53.6735,31.96,82,100,8.68,GL,1665435914
morondava,-20.2833,44.2833,75.45,84,0,7.23,MG,1665435915
artyom,40.4723,50.333,66.34,77,2,9.46,AZ,1665435916
chandauli,25.2667,83.2667,74.34,89,99,3.58,IN,1665435917
soyo,-6.1349,12.3689,76.75,84,6,6.91,AO,1665435917
bandarbeyla,9.4942,50.8122,77.32,90,80,12.88,SO,1665435918
artvin,41.1667,41.8333,54.66,96,97,3.71,TR,1665435624
sokoto,13.0609,5.239,85.82,40,5,6.85,NG,1665435918
saint-augustin,51.226,-58.6502,43.03,49,98,12.12,CA,1665435918
tautira,-17.7333,-149.15,76.14,78,27,13.27,PF,1665435919
yarim,14.298,44.3779,57.04,39,18,9.28,YE,1665435919
banhigan,9.859,123.3893,79.79,81,99,1.81,PH,1665435919
ponta delgada,37.7333,-25.6667,75.51,83,75,6.91,PT,1665435659
oliva,38.9197,-0.1194,67.64,91,100,5.99,ES,1665435929
kangaatsiaq,68.3065,-53.4641,30.2,63,100,13.98,GL,1665435945
capoeiras,-8.7347,-36.6267,66.97,77,82,13.29,BR,1665435951
mossendjo,-2.9506,12.7261,70.77,93,90,0.65,CG,1665435951
ewa beach,21.3156,-158.0072,87.01,63,0,11.5,US,1665435952
lisala,2.15,21.5167,71.31,96,100,2.04,CD,1665435952
kibaha,-6.7667,38.9167,66.33,92,7,4.18,TZ,1665435953
mezen,65.8522,44.24,44.71,84,100,10.22,RU,1665435953
aksarka,66.5606,67.7975,39.81,89,100,17.54,RU,1665435953
ygatimi,-24.0833,-55.5,64.35,89,94,3.31,PY,1665435953
kenai,60.5544,-151.2583,40.14,73,100,10.36,US,1665435953
la palma,33.8464,-118.0467,89.87,65,0,9.22,US,1665435954
jonesboro,35.8423,-90.7043,86.04,28,0,0,US,1665435954
bongor,10.2806,15.3722,76.03,80,14,5.93,TD,1665435954
pascagoula,30.3658,-88.5561,83.12,36,0,9.22,US,1665435955
areosa,41.7178,-8.8571,63.32,92,39,7.49,PT,1665435741
saravan,39.7196,45.6483,49.37,49,0,4.56,AM,1665435958
krasnoselkup,65.7,82.4667,39.9,98,100,9.33,RU,1665435959
takanabe,32.1333,131.5,55.8,76,98,5.61,JP,1665435959
waingapu,-9.6567,120.2641,80.38,74,100,3.24,ID,1665435961
iberia,29.9502,-91.7507,84.18,30,0,9.22,US,1665435962
pacific grove,36.6177,-121.9166,75.38,89,40,8.05,US,1665435963
hornepayne,49.2138,-84.7705,48.24,54,59,11.07,CA,1665435964
perbaungan,3.5679,98.956,77.11,92,100,4.23,ID,1665435965
huron,41.1501,-82.5499,70.52,50,3,4.59,US,1665435967
namatanai,-3.6667,152.4333,79.68,65,6,3.96,PG,1665435968
mazagao,-0.115,-51.2894,87.85,58,11,8.34,BR,1665435969
mackenzie,55.2999,-123.1698,57.43,27,25,12.39,CA,1665435969
kongolo,-5.3833,27,73.89,73,100,3.69,CD,1665435970
koslan,63.4564,48.8989,40.23,89,70,9.35,RU,1665435971
mutis,6.2262,-77.4044,78.57,86,91,4.27,CO,1665435972
adelaide,-34.9333,138.6,67.32,36,90,18.41,AU,1665435914
taguatinga,-12.3857,-46.5711,93.51,15,58,9.66,BR,1665435974
iraan,30.914,-101.8979,77.14,51,100,10,US,1665435975
ouargaye,11.5033,0.0572,82.63,60,28,7.05,BF,1665435976
rawatsar,29.2833,74.3833,73.54,85,0,4.43,IN,1665435977
mehran,33.1222,46.1646,81.25,24,0,10.54,IR,1665435978
marand,38.4329,45.7749,57.49,50,0,2.46,IR,1665435980
san quintin,30.4833,-115.95,72.18,74,6,13.96,MX,1665435980
kisangani,0.5167,25.2,70.03,95,53,1.25,CD,1665435981
karpogory,64.0019,44.4451,42.17,84,85,9.06,RU,1665435982
melito di porto salvo,37.9222,15.7714,68.22,88,20,5.75,IT,1665435983
plainview,40.7765,-73.4673,68.47,53,0,12.66,US,1665435984
porto novo,6.4965,2.6036,77.79,84,93,4.61,BJ,1665435701
mount gambier,-37.8333,140.7667,55.17,59,95,12.39,AU,1665435985
yagodnoye,62.55,149.6667,-3.23,94,25,3.62,RU,1665435985
alofi,-19.0595,-169.9187,80.49,83,75,13.8,NU,1665435985
batticaloa,7.7102,81.6924,78.08,84,59,2.01,LK,1665435986
demba,-5.51,22.2667,71.4,69,16,0.31,CD,1665435986
mandurah,-32.55,115.7,51.62,68,36,11.03,AU,1665435995
bulungu,-4.55,18.6,74.1,75,92,1.39,CD,1665436006
yenagoa,4.9247,6.2642,76.19,92,100,3.58,NG,1665435974
ayan,56.45,138.1667,36.45,65,94,11.79,RU,1665436020
samarai,-10.6167,150.6667,81.45,77,37,10.33,PG,1665436021
vanimo,-2.6741,141.3028,77.4,90,100,5.17,PG,1665436021
phuket,8,98.25,84.13,89,20,1.14,TH,1665435822
tias,28.9611,-13.645,69.48,78,20,12.66,ES,1665436022
jaisinghnagar,23.7,81.3833,73.06,91,100,3.22,IN,1665436024
moyale,3.5167,39.0584,74.01,42,67,3.4,KE,1665436029
kropotkin,45.4375,40.5756,54.1,73,7,16.26,RU,1665436053
peniche,39.3558,-9.3811,65.08,97,10,4.68,PT,1665436055
baruun-urt,46.6806,113.2792,30.51,36,36,9.06,MN,1665436055
mizan teferi,6.9833,35.5833,59.58,96,62,2.95,ET,1665436055
bacolod,10.6667,122.95,77.18,85,66,2.28,PH,1665436055
umm lajj,25.0213,37.2685,82.72,59,0,8.84,SA,1665436056
kerema,-7.9631,145.7785,77.74,83,100,3.58,PG,1665436056
matagami,49.7502,-77.6328,43.47,64,98,8.59,CA,1665436056
borger,52.9233,6.7931,48.81,90,2,7.78,NL,1665436057
gull lake,50.1001,-108.4847,74.55,20,2,15.7,CA,1665435915
marsa matruh,31.3525,27.2453,71.53,66,0,7.74,EG,1665435929
hualmay,-11.0964,-77.6139,66.15,74,50,11.79,PE,1665436089
saint-louis,16.3333,-15,90.81,42,20,2.3,SN,1665436089
zalegoshch,52.9008,36.8869,47.39,74,100,15.86,RU,1665436089
asuncion,-25.3007,-57.6359,54.84,94,100,3.44,PY,1665435949
port hawkesbury,45.6169,-61.3485,50.92,77,23,6.55,CA,1665436109
corn island,12.1694,-83.0418,83.23,77,99,11.86,NI,1665436113
sistranda,63.7256,8.834,48.16,75,74,37.11,NO,1665436115
nanortalik,60.1432,-45.2371,37.33,94,100,5.3,GL,1665436116
banda aceh,5.5577,95.3222,77.83,83,100,9.86,ID,1665436119
acajutla,13.5928,-89.8275,76.86,90,100,7.63,SV,1665436120
husavik,66.0449,-17.3389,22.62,89,87,9.89,IS,1665435929
dawei,14.0833,98.2,74.86,94,100,2.26,MM,1665436156
andenes,69.3143,16.1194,48.18,87,75,11.5,NO,1665435940
sibolga,1.7427,98.7792,75.99,85,99,2.46,ID,1665436156
verkhnyaya inta,65.9811,60.3094,38.35,96,100,21.77,RU,1665436157
drayton valley,53.2168,-114.9854,64.8,38,100,8.37,CA,1665436157
ossora,59.2353,163.0719,34.7,70,100,9.82,RU,1665436057
puerto leguizamo,-0.1934,-74.7819,83.66,61,99,1.28,CO,1665436192
ternate,0.8,127.4,79.77,79,96,2.82,ID,1665436192
alibag,18.6411,72.8792,82.47,85,100,2.55,IN,1665436192
harwich,51.9419,1.2844,49.51,75,5,4,GB,1665435917
valparaiso,-33.0393,-71.6273,59.23,88,20,10.36,CL,1665436004
huangzhai,38.0751,112.6595,30.61,32,1,0.89,CN,1665436193
aquiraz,-3.9014,-38.3911,80.69,77,16,12.06,BR,1665435968
gourdon,44.75,1.5,57.29,83,100,1.79,FR,1665436203
touros,-5.1989,-35.4608,78.21,79,7,16.13,BR,1665436225
cabedelo,-6.9811,-34.8339,79.47,76,8,15.26,BR,1665436226
coihaique,-45.5752,-72.0662,53.55,50,75,5.75,CL,1665436227
leshukonskoye,64.8989,45.7622,43.45,85,100,10.67,RU,1665436093
pueblo nuevo,23.3833,-105.3833,74.5,36,2,6.08,MX,1665436238
hope,33.6671,-93.5916,84.97,30,28,4.97,US,1665436258
pietersburg,-23.9045,29.4688,63.59,74,0,4.38,ZA,1665436203
skibbereen,51.55,-9.2667,48.49,76,71,2.42,IE,1665436259
portland,45.5234,-122.6762,80.53,52,75,5.75,US,1665436259
bitung,1.4451,125.1824,76.05,80,99,1.7,ID,1665436259
burgersdorp,-30.9977,26.3286,75.33,25,100,7.18,ZA,1665436260
kaura namoda,12.5898,6.5779,83.3,34,6,3.13,NG,1665436260
maralal,1.0968,36.698,60.31,52,29,7.85,KE,1665436260
mecca,21.4267,39.8261,84.09,52,0,2.19,SA,1665436262
moerai,-22.4333,-151.3333,70.3,72,98,23.42,PF,1665436266
sfantu gheorghe,45.8667,25.7833,49.26,75,84,4.14,RO,1665436043
whyalla,-33.0333,137.5833,64.44,38,100,16.6,AU,1665436270
rovinari,44.9167,23.1833,53.55,69,99,3.83,RO,1665436270
lanivtsi,49.8633,26.0908,43.03,77,14,7.29,UA,1665436271
komsomolskiy,40.4272,71.7189,52.52,54,0,4.61,UZ,1665436271
abha,18.2164,42.5053,61.05,23,0,0,SA,1665436262
catuday,16.2923,119.8062,78.33,79,65,6.67,PH,1665436271
luan,46.3592,6.9759,50.36,87,28,3.6,CH,1665436271
caravelas,-17.7125,-39.2481,75.83,80,55,7.83,BR,1665436271
laizhou,37.1717,119.9214,49.21,54,0,6.87,CN,1665436272
harper,4.375,-7.7169,76.77,89,83,5.39,LR,1665436272
sangar,63.9242,127.4739,16.16,93,46,1.95,RU,1665436272
mareeba,-17,145.4333,72.32,92,11,2.51,AU,1665436272
vikhorevka,56.1201,101.1636,40.59,93,100,9.53,RU,1665436272
